[{"name": "\u00ef\u00bb\u00bfcitrus fruit", "price": 4.39, "inStock": false, "lat": 40.655664916666666, "lng": -74.00979675402047, "aisleNumber": 1, "shelfNumber": 0, "UPC": "\u00ef\u00bb\u00bf783048567123", "imageURL": "#"}, {"name": "tropical fruit", "price": 10.43, "inStock": true, "lat": 40.65571191666666, "lng": -74.00974650402047, "aisleNumber": 1, "shelfNumber": 1, "UPC": "783048571984", "imageURL": "#"}, {"name": "whole milk", "price": 10.86, "inStock": true, "lat": 40.65575891666667, "lng": -74.00969625402047, "aisleNumber": 1, "shelfNumber": 2, "UPC": "783048576828", "imageURL": "#"}, {"name": "pip fruit", "price": 11.06, "inStock": true, "lat": 40.655805916666665, "lng": -74.00964600402047, "aisleNumber": 1, "shelfNumber": 3, "UPC": "783048578945", "imageURL": "#"}, {"name": "other vegetables", "price": 18.68, "inStock": false, "lat": 40.655852916666674, "lng": -74.00959575402047, "aisleNumber": 1, "shelfNumber": 4, "UPC": "783048581341", "imageURL": "#"}, {"name": "Marathon Jumbo Roll Bath Tissue", "price": 5.12, "inStock": false, "lat": 40.655946916666664, "lng": -74.00949525402048, "aisleNumber": 1, "shelfNumber": 5, "UPC": "783048587695", "imageURL": "https://images.costco-static.com/ImageDelivery/imageService?profileId=12026540&imageId=3451400-847__1&recipeName=350"}, {"name": "pot plants", "price": 22.03, "inStock": true, "lat": 40.65599391666666, "lng": -74.00944500402048, "aisleNumber": 1, "shelfNumber": 6, "UPC": "783048600417", "imageURL": "#"}, {"name": "beef", "price": 21.27, "inStock": false, "lat": 40.65604091666667, "lng": -74.00939475402048, "aisleNumber": 1, "shelfNumber": 7, "UPC": "783048605504", "imageURL": "#"}, {"name": "frankfurter", "price": 14.6, "inStock": false, "lat": 40.656087916666664, "lng": -74.00934450402048, "aisleNumber": 1, "shelfNumber": 8, "UPC": "783048611819", "imageURL": "#"}, {"name": "chicken", "price": 7.49, "inStock": true, "lat": 40.65613491666667, "lng": -74.00929425402047, "aisleNumber": 1, "shelfNumber": 9, "UPC": "783048611888", "imageURL": "#"}, {"name": "butter", "price": 21.37, "inStock": false, "lat": 40.65562583333333, "lng": -74.00973075804093, "aisleNumber": 2, "shelfNumber": 0, "UPC": "783048613714", "imageURL": "#"}, {"name": "fruit/vegetable juice", "price": 4.99, "inStock": false, "lat": 40.65567283333333, "lng": -74.00968050804093, "aisleNumber": 2, "shelfNumber": 1, "UPC": "783048615978", "imageURL": "#"}, {"name": "packaged fruit/vegetables", "price": 7.15, "inStock": true, "lat": 40.655719833333336, "lng": -74.00963025804093, "aisleNumber": 2, "shelfNumber": 2, "UPC": "783048616432", "imageURL": "#"}, {"name": "chocolate", "price": 16.58, "inStock": false, "lat": 40.65576683333333, "lng": -74.00958000804093, "aisleNumber": 2, "shelfNumber": 3, "UPC": "783048617835", "imageURL": "#"}, {"name": "specialty bar", "price": 15.6, "inStock": true, "lat": 40.65581383333334, "lng": -74.00952975804093, "aisleNumber": 2, "shelfNumber": 4, "UPC": "783048640895", "imageURL": "#"}, {"name": "Kirkland Signature Trail Mix", "price": 6.27, "inStock": false, "lat": 40.65590783333333, "lng": -74.00942925804094, "aisleNumber": 2, "shelfNumber": 5, "UPC": "783048641816", "imageURL": "https://images.costco-static.com/ImageDelivery/imageService?profileId=12026540&imageId=249965-inc__1&recipeName=350"}, {"name": "bottled water", "price": 12.73, "inStock": false, "lat": 40.655954833333325, "lng": -74.00937900804094, "aisleNumber": 2, "shelfNumber": 6, "UPC": "783048644237", "imageURL": "#"}, {"name": "yogurt", "price": 5.14, "inStock": true, "lat": 40.656001833333335, "lng": -74.00932875804094, "aisleNumber": 2, "shelfNumber": 7, "UPC": "783048645258", "imageURL": "#"}, {"name": "sausage", "price": 12.82, "inStock": false, "lat": 40.65604883333333, "lng": -74.00927850804094, "aisleNumber": 2, "shelfNumber": 8, "UPC": "783048655929", "imageURL": "#"}, {"name": "brown bread", "price": 20.63, "inStock": true, "lat": 40.65609583333334, "lng": -74.00922825804093, "aisleNumber": 2, "shelfNumber": 9, "UPC": "783048658548", "imageURL": "#"}, {"name": "hamburger meat", "price": 19.42, "inStock": true, "lat": 40.65558675, "lng": -74.0096647620614, "aisleNumber": 3, "shelfNumber": 0, "UPC": "783051110118", "imageURL": "#"}, {"name": "root vegetables", "price": 2.83, "inStock": true, "lat": 40.65563374999999, "lng": -74.0096145120614, "aisleNumber": 3, "shelfNumber": 1, "UPC": "783059097879", "imageURL": "#"}, {"name": "pork", "price": 1.13, "inStock": false, "lat": 40.65568075, "lng": -74.0095642620614, "aisleNumber": 3, "shelfNumber": 2, "UPC": "783059098234", "imageURL": "#"}, {"name": "pastry", "price": 17.8, "inStock": true, "lat": 40.65572775, "lng": -74.0095140120614, "aisleNumber": 3, "shelfNumber": 3, "UPC": "783059108988", "imageURL": "#"}, {"name": "canned beer", "price": 3.45, "inStock": true, "lat": 40.655774750000006, "lng": -74.0094637620614, "aisleNumber": 3, "shelfNumber": 4, "UPC": "783059135694", "imageURL": "#"}, {"name": "Bounce Dryer Sheets", "price": 3.3, "inStock": true, "lat": 40.655868749999996, "lng": -74.00936326206141, "aisleNumber": 3, "shelfNumber": 5, "UPC": "783059144603", "imageURL": "https://images.costco-static.com/ImageDelivery/imageService?profileId=12026540&imageId=1006152-847__1&recipeName=350"}, {"name": "coffee", "price": 13.0, "inStock": true, "lat": 40.65591574999999, "lng": -74.00931301206141, "aisleNumber": 3, "shelfNumber": 6, "UPC": "783059144634", "imageURL": "#"}, {"name": "misc. beverages", "price": 14.19, "inStock": true, "lat": 40.65596275, "lng": -74.00926276206141, "aisleNumber": 3, "shelfNumber": 7, "UPC": "783059220628", "imageURL": "#"}, {"name": "ham", "price": 17.75, "inStock": true, "lat": 40.656009749999996, "lng": -74.00921251206141, "aisleNumber": 3, "shelfNumber": 8, "UPC": "783059253169", "imageURL": "#"}, {"name": "turkey", "price": 11.5, "inStock": true, "lat": 40.656056750000005, "lng": -74.00916226206141, "aisleNumber": 3, "shelfNumber": 9, "UPC": "783059646923", "imageURL": "#"}, {"name": "curd cheese", "price": 6.17, "inStock": true, "lat": 40.65554766666667, "lng": -74.00959876608187, "aisleNumber": 4, "shelfNumber": 0, "UPC": "783060649005", "imageURL": "#"}, {"name": "red/blush wine", "price": 16.64, "inStock": true, "lat": 40.655594666666666, "lng": -74.00954851608186, "aisleNumber": 4, "shelfNumber": 1, "UPC": "783062012623", "imageURL": "#"}, {"name": "frozen potato products", "price": 12.14, "inStock": false, "lat": 40.655641666666675, "lng": -74.00949826608186, "aisleNumber": 4, "shelfNumber": 2, "UPC": "783062100535", "imageURL": "#"}, {"name": "flour", "price": 4.91, "inStock": false, "lat": 40.65568866666667, "lng": -74.00944801608186, "aisleNumber": 4, "shelfNumber": 3, "UPC": "783062101624", "imageURL": "#"}, {"name": "sugar", "price": 7.79, "inStock": true, "lat": 40.65573566666668, "lng": -74.00939776608186, "aisleNumber": 4, "shelfNumber": 4, "UPC": "783062101709", "imageURL": "#"}, {"name": "Swanson Chicken Broth", "price": 19.96, "inStock": true, "lat": 40.65582966666667, "lng": -74.00929726608187, "aisleNumber": 4, "shelfNumber": 5, "UPC": "783062101716", "imageURL": "https://images.costco-static.com/ImageDelivery/imageService?profileId=12026540&imageId=208551-847__1&recipeName=350"}, {"name": "herbs", "price": 12.82, "inStock": false, "lat": 40.655876666666664, "lng": -74.00924701608187, "aisleNumber": 4, "shelfNumber": 6, "UPC": "783062101808", "imageURL": "#"}, {"name": "soda", "price": 7.04, "inStock": false, "lat": 40.65592366666667, "lng": -74.00919676608187, "aisleNumber": 4, "shelfNumber": 7, "UPC": "783062102300", "imageURL": "#"}, {"name": "detergent", "price": 20.71, "inStock": false, "lat": 40.65597066666667, "lng": -74.00914651608187, "aisleNumber": 4, "shelfNumber": 8, "UPC": "783062102317", "imageURL": "#"}, {"name": "grapes", "price": 11.9, "inStock": false, "lat": 40.65601766666668, "lng": -74.00909626608187, "aisleNumber": 4, "shelfNumber": 9, "UPC": "783062102331", "imageURL": "#"}, {"name": "processed cheese", "price": 2.24, "inStock": false, "lat": 40.65550858333334, "lng": -74.00953277010234, "aisleNumber": 5, "shelfNumber": 0, "UPC": "783062102348", "imageURL": "#"}, {"name": "fish", "price": 18.85, "inStock": true, "lat": 40.65555558333333, "lng": -74.00948252010234, "aisleNumber": 5, "shelfNumber": 1, "UPC": "783062102423", "imageURL": "#"}, {"name": "sparkling wine", "price": 24.36, "inStock": false, "lat": 40.65560258333334, "lng": -74.00943227010234, "aisleNumber": 5, "shelfNumber": 2, "UPC": "783062102638", "imageURL": "#"}, {"name": "newspapers", "price": 3.28, "inStock": false, "lat": 40.655649583333336, "lng": -74.00938202010234, "aisleNumber": 5, "shelfNumber": 3, "UPC": "783062102683", "imageURL": "#"}, {"name": "curd", "price": 23.31, "inStock": false, "lat": 40.655696583333345, "lng": -74.00933177010234, "aisleNumber": 5, "shelfNumber": 4, "UPC": "783062103079", "imageURL": "#"}, {"name": "Reynolds Wrap Aluminum Foil", "price": 9.46, "inStock": true, "lat": 40.655790583333335, "lng": -74.00923127010235, "aisleNumber": 5, "shelfNumber": 5, "UPC": "783062103086", "imageURL": "https://images.costco-static.com/ImageDelivery/imageService?profileId=12026540&imageId=720-847__1&recipeName=350"}, {"name": "popcorn", "price": 13.81, "inStock": false, "lat": 40.65583758333333, "lng": -74.00918102010235, "aisleNumber": 5, "shelfNumber": 6, "UPC": "783062103437", "imageURL": "#"}, {"name": "finished products", "price": 23.99, "inStock": true, "lat": 40.65588458333334, "lng": -74.00913077010235, "aisleNumber": 5, "shelfNumber": 7, "UPC": "783062103444", "imageURL": "#"}, {"name": "beverages", "price": 9.4, "inStock": false, "lat": 40.655931583333334, "lng": -74.00908052010234, "aisleNumber": 5, "shelfNumber": 8, "UPC": "783062103666", "imageURL": "#"}, {"name": "bottled beer", "price": 5.84, "inStock": false, "lat": 40.655978583333344, "lng": -74.00903027010234, "aisleNumber": 5, "shelfNumber": 9, "UPC": "783062103697", "imageURL": "#"}, {"name": "dessert", "price": 4.95, "inStock": true, "lat": 40.6554695, "lng": -74.0094667741228, "aisleNumber": 6, "shelfNumber": 0, "UPC": "783062103734", "imageURL": "#"}, {"name": "dog food", "price": 16.69, "inStock": true, "lat": 40.6555165, "lng": -74.0094165241228, "aisleNumber": 6, "shelfNumber": 1, "UPC": "783062103741", "imageURL": "#"}, {"name": "specialty chocolate", "price": 8.23, "inStock": true, "lat": 40.65556350000001, "lng": -74.0093662741228, "aisleNumber": 6, "shelfNumber": 2, "UPC": "783062103901", "imageURL": "#"}, {"name": "condensed milk", "price": 7.17, "inStock": true, "lat": 40.6556105, "lng": -74.0093160241228, "aisleNumber": 6, "shelfNumber": 3, "UPC": "783062104052", "imageURL": "#"}, {"name": "cleaner", "price": 8.53, "inStock": true, "lat": 40.65565750000001, "lng": -74.0092657741228, "aisleNumber": 6, "shelfNumber": 4, "UPC": "783062107534", "imageURL": "#"}, {"name": "Dixie To Go 12 oz Insulated Cup", "price": 1.98, "inStock": true, "lat": 40.6557515, "lng": -74.00916527412281, "aisleNumber": 6, "shelfNumber": 5, "UPC": "783062108135", "imageURL": "https://images.costco-static.com/ImageDelivery/imageService?profileId=12026540&imageId=783846-847__1&recipeName=350"}, {"name": "meat", "price": 20.64, "inStock": false, "lat": 40.655798499999996, "lng": -74.0091150241228, "aisleNumber": 6, "shelfNumber": 6, "UPC": "783062109651", "imageURL": "#"}, {"name": "ice cream", "price": 12.7, "inStock": false, "lat": 40.655845500000005, "lng": -74.0090647741228, "aisleNumber": 6, "shelfNumber": 7, "UPC": "783062110787", "imageURL": "#"}, {"name": "hard cheese", "price": 17.9, "inStock": true, "lat": 40.6558925, "lng": -74.0090145241228, "aisleNumber": 6, "shelfNumber": 8, "UPC": "783062111142", "imageURL": "#"}, {"name": "cream cheese", "price": 9.04, "inStock": false, "lat": 40.65593950000001, "lng": -74.0089642741228, "aisleNumber": 6, "shelfNumber": 9, "UPC": "783062902771", "imageURL": "#"}, {"name": "liquor", "price": 1.34, "inStock": true, "lat": 40.65543041666667, "lng": -74.00940077814327, "aisleNumber": 7, "shelfNumber": 0, "UPC": "783062905291", "imageURL": "#"}, {"name": "pickled vegetables", "price": 22.93, "inStock": false, "lat": 40.65547741666666, "lng": -74.00935052814327, "aisleNumber": 7, "shelfNumber": 1, "UPC": "783062907264", "imageURL": "#"}, {"name": "liquor (appetizer)", "price": 24.95, "inStock": false, "lat": 40.65552441666667, "lng": -74.00930027814327, "aisleNumber": 7, "shelfNumber": 2, "UPC": "783062907929", "imageURL": "#"}, {"name": "milk", "price": 12.61, "inStock": true, "lat": 40.65557141666667, "lng": -74.00925002814327, "aisleNumber": 7, "shelfNumber": 3, "UPC": "783064080132", "imageURL": "#"}, {"name": "candy", "price": 6.5, "inStock": true, "lat": 40.65561841666668, "lng": -74.00919977814327, "aisleNumber": 7, "shelfNumber": 4, "UPC": "783064080149", "imageURL": "#"}, {"name": "Swiss Miss Hot Cocoa Mix", "price": 2.24, "inStock": false, "lat": 40.65571241666667, "lng": -74.00909927814328, "aisleNumber": 7, "shelfNumber": 5, "UPC": "783068110538", "imageURL": "https://images.costco-static.com/ImageDelivery/imageService?profileId=12026540&imageId=1242231-847__1&recipeName=350"}, {"name": "hair spray", "price": 6.51, "inStock": false, "lat": 40.65575941666666, "lng": -74.00904902814328, "aisleNumber": 7, "shelfNumber": 6, "UPC": "783068150015", "imageURL": "#"}, {"name": "photo/film", "price": 6.66, "inStock": true, "lat": 40.65580641666667, "lng": -74.00899877814328, "aisleNumber": 7, "shelfNumber": 7, "UPC": "783068500018", "imageURL": "#"}, {"name": "domestic eggs", "price": 6.49, "inStock": true, "lat": 40.655853416666666, "lng": -74.00894852814328, "aisleNumber": 7, "shelfNumber": 8, "UPC": "783068750062", "imageURL": "#"}, {"name": "margarine", "price": 6.78, "inStock": true, "lat": 40.655900416666675, "lng": -74.00889827814328, "aisleNumber": 7, "shelfNumber": 9, "UPC": "783078012525", "imageURL": "#"}, {"name": "shopping bags", "price": 16.88, "inStock": false, "lat": 40.655391333333334, "lng": -74.00933478216375, "aisleNumber": 8, "shelfNumber": 0, "UPC": "783078012624", "imageURL": "#"}, {"name": "salt", "price": 10.23, "inStock": false, "lat": 40.65543833333333, "lng": -74.00928453216375, "aisleNumber": 8, "shelfNumber": 1, "UPC": "783078014420", "imageURL": "#"}, {"name": "oil", "price": 19.86, "inStock": true, "lat": 40.65548533333334, "lng": -74.00923428216375, "aisleNumber": 8, "shelfNumber": 2, "UPC": "783084144005", "imageURL": "#"}, {"name": "whipped/sour cream", "price": 14.48, "inStock": false, "lat": 40.65553233333333, "lng": -74.00918403216374, "aisleNumber": 8, "shelfNumber": 3, "UPC": "783087107885", "imageURL": "#"}, {"name": "frozen vegetables", "price": 16.98, "inStock": false, "lat": 40.65557933333334, "lng": -74.00913378216374, "aisleNumber": 8, "shelfNumber": 4, "UPC": "783087145375", "imageURL": "#"}, {"name": "Kar's Trail Mix Variety Pack", "price": 11.68, "inStock": false, "lat": 40.65567333333333, "lng": -74.00903328216376, "aisleNumber": 8, "shelfNumber": 5, "UPC": "783121111625", "imageURL": "https://images.costco-static.com/ImageDelivery/imageService?profileId=12026540&imageId=631720-847__1&recipeName=350"}, {"name": "dish cleaner", "price": 20.91, "inStock": false, "lat": 40.65572033333333, "lng": -74.00898303216375, "aisleNumber": 8, "shelfNumber": 6, "UPC": "783121180225", "imageURL": "#"}, {"name": "baking powder", "price": 4.68, "inStock": true, "lat": 40.65576733333334, "lng": -74.00893278216375, "aisleNumber": 8, "shelfNumber": 7, "UPC": "783124004405", "imageURL": "#"}, {"name": "specialty cheese", "price": 11.39, "inStock": false, "lat": 40.65581433333333, "lng": -74.00888253216375, "aisleNumber": 8, "shelfNumber": 8, "UPC": "783124007703", "imageURL": "#"}, {"name": "salty snack", "price": 5.08, "inStock": true, "lat": 40.65586133333334, "lng": -74.00883228216375, "aisleNumber": 8, "shelfNumber": 9, "UPC": "783134176116", "imageURL": "#"}, {"name": "Instant food products", "price": 5.4, "inStock": false, "lat": 40.65535225000001, "lng": -74.00926878618421, "aisleNumber": 9, "shelfNumber": 0, "UPC": "783134617046", "imageURL": "#"}, {"name": "pet care", "price": 11.11, "inStock": false, "lat": 40.65539925, "lng": -74.0092185361842, "aisleNumber": 9, "shelfNumber": 1, "UPC": "783134617053", "imageURL": "#"}, {"name": "white bread", "price": 20.18, "inStock": false, "lat": 40.65544625000001, "lng": -74.0091682861842, "aisleNumber": 9, "shelfNumber": 2, "UPC": "783136101093", "imageURL": "#"}, {"name": "female sanitary products", "price": 13.67, "inStock": true, "lat": 40.655493250000006, "lng": -74.0091180361842, "aisleNumber": 9, "shelfNumber": 3, "UPC": "783137556533", "imageURL": "#"}, {"name": "cling film/bags", "price": 3.43, "inStock": true, "lat": 40.655540250000016, "lng": -74.0090677861842, "aisleNumber": 9, "shelfNumber": 4, "UPC": "783143100010", "imageURL": "#"}, {"name": "Second Nature Trail Mix", "price": 12.65, "inStock": false, "lat": 40.655634250000006, "lng": -74.00896728618422, "aisleNumber": 9, "shelfNumber": 5, "UPC": "783143100027", "imageURL": "https://images.costco-static.com/ImageDelivery/imageService?profileId=12026540&imageId=886992-847__1&recipeName=350"}, {"name": "frozen chicken", "price": 19.07, "inStock": false, "lat": 40.65568125, "lng": -74.00891703618422, "aisleNumber": 9, "shelfNumber": 6, "UPC": "783144560523", "imageURL": "#"}, {"name": "house keeping products", "price": 6.49, "inStock": false, "lat": 40.65572825000001, "lng": -74.00886678618421, "aisleNumber": 9, "shelfNumber": 7, "UPC": "783147383891", "imageURL": "#"}, {"name": "spread cheese", "price": 8.88, "inStock": true, "lat": 40.655775250000005, "lng": -74.00881653618421, "aisleNumber": 9, "shelfNumber": 8, "UPC": "783147385680", "imageURL": "#"}, {"name": "decalcifier", "price": 16.17, "inStock": false, "lat": 40.655822250000014, "lng": -74.00876628618421, "aisleNumber": 9, "shelfNumber": 9, "UPC": "783147454591", "imageURL": "#"}, {"name": "frozen dessert", "price": 20.31, "inStock": true, "lat": 40.65531316666667, "lng": -74.00920279020468, "aisleNumber": 10, "shelfNumber": 0, "UPC": "783147656599", "imageURL": "#"}, {"name": "vinegar", "price": 16.69, "inStock": true, "lat": 40.65536016666667, "lng": -74.00915254020468, "aisleNumber": 10, "shelfNumber": 1, "UPC": "783151006205", "imageURL": "#"}, {"name": "nuts/prunes", "price": 15.83, "inStock": true, "lat": 40.65540716666668, "lng": -74.00910229020468, "aisleNumber": 10, "shelfNumber": 2, "UPC": "783151006403", "imageURL": "#"}, {"name": "potato products", "price": 9.56, "inStock": false, "lat": 40.65545416666667, "lng": -74.00905204020468, "aisleNumber": 10, "shelfNumber": 3, "UPC": "783154010018", "imageURL": "#"}, {"name": "frozen fish", "price": 14.5, "inStock": false, "lat": 40.65550116666668, "lng": -74.00900179020468, "aisleNumber": 10, "shelfNumber": 4, "UPC": "783154120076", "imageURL": "#"}, {"name": "\"Kar's Trail Mix Sweet 'N Salty\"", "price": 10.77, "inStock": true, "lat": 40.65559516666667, "lng": -74.00890129020469, "aisleNumber": 10, "shelfNumber": 5, "UPC": "783154120502", "imageURL": "https://images.costco-static.com/ImageDelivery/imageService?profileId=12026540&imageId=411389-847__1&recipeName=350"}, {"name": "artif. sweetener", "price": 11.26, "inStock": false, "lat": 40.65564216666667, "lng": -74.00885104020469, "aisleNumber": 10, "shelfNumber": 6, "UPC": "783154123459", "imageURL": "#"}, {"name": "light bulbs", "price": 11.5, "inStock": false, "lat": 40.655689166666676, "lng": -74.00880079020469, "aisleNumber": 10, "shelfNumber": 7, "UPC": "783154130174", "imageURL": "#"}, {"name": "canned vegetables", "price": 17.49, "inStock": false, "lat": 40.65573616666667, "lng": -74.00875054020469, "aisleNumber": 10, "shelfNumber": 8, "UPC": "783154250018", "imageURL": "#"}, {"name": "chewing gum", "price": 24.54, "inStock": true, "lat": 40.65578316666668, "lng": -74.00870029020469, "aisleNumber": 10, "shelfNumber": 9, "UPC": "783158969923", "imageURL": "#"}]